{ "type": "FeatureCollection",
  "features": [
    { "type": "Feature",
      "geometry": {"type": "Point", "coordinates": [101.688 ,3.1357]},
      "properties": {"Place": "Kuala Lumpur"}
      },
    {
      "type": "Feature",
      "properties": {
        "Place": "George Town"
      },
      "geometry": {
        "type": "Point",
        "coordinates": [
          100.316667,
          5.416667
        ]
      }
    },
    {
      "type": "Feature",
      "properties": {
        "Place": "Sydney"
      },
      "geometry": {
        "type": "Point",
        "coordinates": [
          151.219,
          -33.88
        ]
      }
    },
    {
      "type": "Feature",
      "properties": {
        "Place": "Fremont"
      },
      "geometry": {
        "type": "Point",
        "coordinates": [
          -121.988611,
          37.548333
        ]
      }
    },
    {
      "type": "Feature",
      "properties": {
        "Place": "Ames"
      },
      "geometry": {
        "type": "Point",
        "coordinates": [
          -93.62,
          42.034722
        ]
      }
    },
    {
      "type": "Feature",
      "properties": {
        "Place": "Singapore"
      },
      "geometry": {
        "type": "Point",
        "coordinates": [
          103.8,
          1.3
        ]
      }
    }
  ]
}
